[{"id": "corridor_2", "block_count": 4, "avg_score": 58.9, "severity": "severe", "blocks": [{"block_id": "-8627_3241", "name": "Norman Bridge Industrial #1", "score": 59.2, "lat": 32.4122712776072, "lng": -86.27845358906333}, {"block_id": "-8628_3240", "name": "Norman Bridge Residential #1", "score": 56.8, "lat": 32.4062744543561, "lng": -86.28760147632757}, {"block_id": "-8628_3241", "name": "North MGM Residential #4", "score": 61.9, "lat": 32.41665296472572, "lng": -86.28695709875}, {"block_id": "-8629_3239", "name": "Norman Bridge Commercial #2", "score": 57.7, "lat": 32.39635882022807, "lng": -86.2947803890246}]}, {"id": "corridor_4", "block_count": 4, "avg_score": 55.6, "severity": "severe", "blocks": [{"block_id": "-8631_3235", "name": "Cloverdale Residential #2", "score": 55.3, "lat": 32.35456209790863, "lng": -86.31281740046022}, {"block_id": "-8631_3236", "name": "Capitol Heights Commercial #1", "score": 56.9, "lat": 32.36192794350319, "lng": -86.3158217138169}, {"block_id": "-8632_3235", "name": "West Montgomery Commercial", "score": 52.7, "lat": 32.35295445858718, "lng": -86.32497661933029}, {"block_id": "-8633_3235", "name": "West Montgomery Industrial #1", "score": 57.6, "lat": 32.35780605034068, "lng": -86.33204737013483}]}, {"id": "corridor_3", "block_count": 3, "avg_score": 55.2, "severity": "severe", "blocks": [{"block_id": "-8629_3234", "name": "Woodley Park Office/Public #2", "score": 57.9, "lat": 32.343605961865045, "lng": -86.29511660225413}, {"block_id": "-8630_3233", "name": "South Blvd Residential #2", "score": 47.3, "lat": 32.33744791658089, "lng": -86.3073058379143}, {"block_id": "-8631_3233", "name": "South Blvd Residential #3", "score": 60.5, "lat": 32.33586372455192, "lng": -86.31718529353961}]}, {"id": "corridor_1", "block_count": 5, "avg_score": 52.6, "severity": "severe", "blocks": [{"block_id": "-8626_3237", "name": "Midtown Residential #1", "score": 54.5, "lat": 32.37548576558275, "lng": -86.2633474551867}, {"block_id": "-8627_3236", "name": "Midtown Commercial #2", "score": 58.7, "lat": 32.36284324203352, "lng": -86.2761095672425}, {"block_id": "-8627_3237", "name": "Midtown Commercial #3", "score": 52.3, "lat": 32.375504900679054, "lng": -86.27414497867177}, {"block_id": "-8627_3238", "name": "Midtown Residential #2", "score": 49.1, "lat": 32.38467782217126, "lng": -86.27323515539214}, {"block_id": "-8628_3238", "name": "Downtown Commercial #1", "score": 48.6, "lat": 32.382495726673845, "lng": -86.28113504776567}]}]